{
   "type": "FeatureCollection",
   "features": [
  {
    "type": "Feature",
    "geometry": {
       "type": "Point",
       "coordinates":  [ 45.36,2.040449815 ]
    },
    "properties": {
    "district":"Abdiasis"
    }
  },
  {
    "type": "Feature",
    "geometry": {
       "type": "Point",
       "coordinates":  [ 45.1167,2.1426 ]
    },
    "properties": {
    "district":"Afgooye"
    }
  },
  {
    "type": "Feature",
    "geometry": {
       "type": "Point",
       "coordinates":  [ 42.288,2.339 ]
    },
    "properties": {
    "district":"Baardheere"
    }
  },
  {
    "type": "Feature",
    "geometry": {
       "type": "Point",
       "coordinates":  [ 43.6519,3.1141 ]
    },
    "properties": {
    "district":"Baidoa"
    }
  },
  {
    "type": "Feature",
    "geometry": {
       "type": "Point",
       "coordinates":  [ 43.95077,4.20523 ]
    },
    "properties": {
    "district":"Bakool"
    }
  },
  {
    "type": "Feature",
    "geometry": {
       "type": "Point",
       "coordinates":  [ 45.3863,2.3584 ]
    },
    "properties": {
    "district":"Balcad"
    }
  },
  {
    "type": "Feature",
    "geometry": {
       "type": "Point",
       "coordinates":  [ 50.16365,10.30626 ]
    },
    "properties": {
    "district":"Bari"
    }
  },
  {
    "type": "Feature",
    "geometry": {
       "type": "Point",
       "coordinates":  [ 43.56644,2.65301 ]
    },
    "properties": {
    "district":"Bay"
    }
  },
  {
    "type": "Feature",
    "geometry": {
       "type": "Point",
       "coordinates":  [ 43.6519,3.1141 ]
    },
    "properties": {
    "district":"Baydhaba"
    }
  },
  {
    "type": "Feature",
    "geometry": {
       "type": "Point",
       "coordinates":  [ 45.34,2.045550458 ]
    },
    "properties": {
    "district":"Boondheere"
    }
  },
  {
    "type": "Feature",
    "geometry": {
       "type": "Point",
       "coordinates":  [ 44.0794,2.7991 ]
    },
    "properties": {
    "district":"Bur Hakaba"
    }
  },
  {
    "type": "Feature",
    "geometry": {
       "type": "Point",
       "coordinates":  [ 45.36,2.040449815 ]
    },
    "properties": {
    "district":"Cabdicasiis"
    }
  },
  {
    "type": "Feature",
    "geometry": {
       "type": "Point",
       "coordinates":  [ 45.28,2.073503076 ]
    },
    "properties": {
    "district":"Daynile"
    }
  },
  {
    "type": "Feature",
    "geometry": {
       "type": "Point",
       "coordinates":  [ 45.25,2.009499426 ]
    },
    "properties": {
    "district":"Dharkenley"
    }
  },
  {
    "type": "Feature",
    "geometry": {
       "type": "Point",
       "coordinates":  [ 45.360275,2.046441667 ]
    },
    "properties": {
    "district":"Forlanini"
    }
  },
  {
    "type": "Feature",
    "geometry": {
       "type": "Point",
       "coordinates":  [ 46.81808,5.03349 ]
    },
    "properties": {
    "district":"Galgaduud"
    }
  },
  {
    "type": "Feature",
    "geometry": {
       "type": "Point",
       "coordinates":  [ 41.97805,2.89647 ]
    },
    "properties": {
    "district":"Gedo"
    }
  },
  {
    "type": "Feature",
    "geometry": {
       "type": "Point",
       "coordinates":  [ 45.32,2.048030929 ]
    },
    "properties": {
    "district":"Hawl Wadaag"
    }
  },
  {
    "type": "Feature",
    "geometry": {
       "type": "Point",
       "coordinates":  [ 45.2994,4.321 ]
    },
    "properties": {
    "district":"Hiraan"
    }
  },
  {
    "type": "Feature",
    "geometry": {
       "type": "Point",
       "coordinates":  [ 45.3,2.043926495 ]
    },
    "properties": {
    "district":"Hodan"
    }
  },
  {
    "type": "Feature",
    "geometry": {
       "type": "Point",
       "coordinates":  [ 43.8888,4.1228 ]
    },
    "properties": {
    "district":"Hudur"
    }
  },
  {
    "type": "Feature",
    "geometry": {
       "type": "Point",
       "coordinates":  [ 45.5016,2.7774 ]
    },
    "properties": {
    "district":"Jowhar"
    }
  },
  {
    "type": "Feature",
    "geometry": {
       "type": "Point",
       "coordinates":  [ 41.88302,-0.04197 ]
    },
    "properties": {
    "district":"Juba Hoose"
    }
  },
  {
    "type": "Feature",
    "geometry": {
       "type": "Point",
       "coordinates":  [ 45.2677939,2.059891418 ]
    },
    "properties": {
    "district":"Kahda"
    }
  },
  {
    "type": "Feature",
    "geometry": {
       "type": "Point",
       "coordinates":  [ 45.39,2.065160176 ]
    },
    "properties": {
    "district":"Karaan"
    }
  },
  {
    "type": "Feature",
    "geometry": {
       "type": "Point",
       "coordinates":  [ 42.5461,0.356 ]
    },
    "properties": {
    "district":"Kismayo"
    }
  },
  {
    "type": "Feature",
    "geometry": {
       "type": "Point",
       "coordinates":  [ 45.16352,2.09955 ]
    },
    "properties": {
    "district":"Lafole"
    }
  },
  {
    "type": "Feature",
    "geometry": {
       "type": "Point",
       "coordinates":  [ 41.88302,-0.04197 ]
    },
    "properties": {
    "district":"Lower Juba"
    }
  },
  {
    "type": "Feature",
    "geometry": {
       "type": "Point",
       "coordinates":  [ 42.60051,0.82171 ]
    },
    "properties": {
    "district":"Madino"
    }
  },
  {
    "type": "Feature",
    "geometry": {
       "type": "Point",
       "coordinates":  [ 48.23885,6.30213 ]
    },
    "properties": {
    "district":"Mudug"
    }
  },
  {
    "type": "Feature",
    "geometry": {
       "type": "Point",
       "coordinates":  [ 46.10327,2.96066 ]
    },
    "properties": {
    "district":"Shabelle Dhexe"
    }
  },
  {
    "type": "Feature",
    "geometry": {
       "type": "Point",
       "coordinates":  [ 45.35,2.03373112 ]
    },
    "properties": {
    "district":"Shangani"
    }
  },
  {
    "type": "Feature",
    "geometry": {
       "type": "Point",
       "coordinates":  [ 45.35,2.047637896 ]
    },
    "properties": {
    "district":"Shibis"
    }
  },
  {
    "type": "Feature",
    "geometry": {
       "type": "Point",
       "coordinates":  { }
    },
    "properties": {
    "district":"Tarbunka"
    }
  },
  {
    "type": "Feature",
    "geometry": {
       "type": "Point",
       "coordinates":  [ 48.87528,6.61722 ]
    },
    "properties": {
    "district":"Towfiiq"
    }
  },
  {
    "type": "Feature",
    "geometry": {
       "type": "Point",
       "coordinates":  [ 45.3217067,2.0310756 ]
    },
    "properties": {
    "district":"Waaberi"
    }
  },
  {
    "type": "Feature",
    "geometry": {
       "type": "Point",
       "coordinates":  [ 45.28,2.054921387 ]
    },
    "properties": {
    "district":"Wadajir"
    }
  },
  {
    "type": "Feature",
    "geometry": {
       "type": "Point",
       "coordinates":  [ 45.33,2.054921387 ]
    },
    "properties": {
    "district":"Wardhiigleey"
    }
  },
  {
    "type": "Feature",
    "geometry": {
       "type": "Point",
       "coordinates":  [ 46.79135,4.8297 ]
    },
    "properties": {
    "district":"Xalane"
    }
  },
  {
    "type": "Feature",
    "geometry": {
       "type": "Point",
       "coordinates":  [ 45.33,2.027641272 ]
    },
    "properties": {
    "district":"Xamar JaabJab"
    }
  },
  {
    "type": "Feature",
    "geometry": {
       "type": "Point",
       "coordinates":  [ 45.34,2.03373112 ]
    },
    "properties": {
    "district":"Xamar Weyne"
    }
  },
  {
    "type": "Feature",
    "geometry": {
       "type": "Point",
       "coordinates":  [ 45.35,2.06777077 ]
    },
    "properties": {
    "district":"Yaaqshiid"
    }
  }
]
}